City_ID,City,Lat,Lng,Max Temp,Humidity,Cloudiness,Wind Speed,Country,Date
0,houghton,47.1219,-88.569,3.95,81,84,4.6,US,1712329671
1,adamstown,-25.066,-130.1015,22.04,62,92,3.55,PN,1712329496
2,severo-yeniseyskiy,60.3725,93.0408,-3.3,98,100,1.24,RU,1712329567
3,grytviken,-54.2811,-36.5092,2.88,89,100,1.82,GS,1712329702
4,noosa heads,-26.3833,153.15,21.73,80,34,1.32,AU,1712329433
5,banda aceh,5.5577,95.3222,27.68,78,32,3.17,ID,1712329702
6,iskateley,67.6803,53.1512,-12.84,96,100,3.13,RU,1712329702
7,waitangi,-43.9535,-176.5597,10.46,86,100,0.45,NZ,1712329702
8,kalamata,37.0389,22.1142,23.39,40,20,3.09,GR,1712329703
9,ancud,-41.8697,-73.8203,13.63,74,26,0.8,CL,1712329683
10,iqaluit,63.7506,-68.5145,-9.15,85,100,3.6,CA,1712329498
11,margate,51.3813,1.3862,16.6,65,97,9.56,GB,1712329480
12,port-aux-francais,-49.35,70.2167,6.98,86,8,6.1,TF,1712329704
13,longyearbyen,78.2186,15.6401,-19.09,65,20,1.03,SJ,1712329689
14,olonkinbyen,70.9221,-8.7187,-6.64,56,100,7.83,SJ,1712329704
15,yellowknife,62.456,-114.3525,-7.55,81,76,2.68,CA,1712329704
16,jose pedro varela,-33.45,-54.5333,22.19,48,0,2.43,UY,1712329704
17,avarua,-21.2078,-159.775,24.03,100,100,2.06,CK,1712329704
18,djambala,-2.5447,14.7533,23.22,82,100,0.9,CG,1712329704
19,poronaysk,49.2167,143.1167,-0.34,78,71,2.68,RU,1712329704
20,jamestown,42.097,-79.2353,2.23,88,100,4.63,US,1712329606
21,vega de alatorre,20.0333,-96.6333,24.43,64,87,2.61,MX,1712329704
22,enniskillen,54.3461,-7.6413,10.81,94,100,4.03,GB,1712329705
23,bethel,41.3712,-73.414,7.52,62,100,5.66,US,1712329697
24,ndele,8.4109,20.6473,25.84,70,100,3.54,CF,1712329705
25,williston,48.147,-103.618,10.45,41,96,3.58,US,1712329694
26,college,64.8569,-147.8028,0.18,93,100,0.0,US,1712329546
27,thompson,55.7435,-97.8558,1.34,99,100,3.07,CA,1712329705
28,malanje,-9.5402,16.341,25.54,74,100,1.54,AO,1712329706
29,sitka,57.0531,-135.33,4.94,75,100,5.66,US,1712329706
30,puerto natales,-51.7236,-72.4875,14.25,51,75,10.8,CL,1712329706
31,pingliang,35.5392,106.6861,9.11,79,26,1.37,CN,1712329706
32,medicine hat,50.0501,-110.6683,2.07,91,100,3.6,CA,1712329502
33,nagqu,31.5,92.0,3.01,24,100,5.07,CN,1712329513
34,edinburgh of the seven seas,-37.0676,-12.3116,18.33,87,99,11.09,SH,1712329706
35,port lincoln,-34.7333,135.8667,14.11,77,13,3.97,AU,1712329706
36,port elizabeth,-33.918,25.5701,18.94,70,100,2.68,ZA,1712329551
37,cambria,35.5641,-121.0808,8.13,94,81,1.34,US,1712329706
38,budva,42.2864,18.84,22.14,74,20,2.06,ME,1712329707
39,blackmans bay,-43.0167,147.3167,11.96,90,6,0.45,AU,1712329707
40,whangarei,-35.7317,174.3239,11.72,94,32,0.81,NZ,1712329707
41,lihue,21.9789,-159.3672,21.58,86,100,7.72,US,1712329707
42,waimea,20.0231,-155.6717,15.85,92,0,4.47,US,1712329707
43,turpan,42.9333,89.1667,17.06,24,33,4.06,CN,1712329707
44,bredasdorp,-34.5322,20.0403,17.25,54,99,6.62,ZA,1712329546
45,chibougamau,49.9168,-74.3659,1.25,88,100,5.98,CA,1712329707
46,talnakh,69.4865,88.3972,-17.54,81,99,4.78,RU,1712329708
47,qaqortoq,60.7167,-46.0333,0.95,62,11,3.34,GL,1712329708
48,loreto,22.2667,-101.9667,16.72,10,2,4.52,MX,1712329556
49,hawaiian paradise park,19.5933,-154.9731,19.46,96,100,1.54,US,1712329708
50,albany,42.6001,-73.9662,4.54,72,83,4.92,US,1712329425
51,tarawa,1.419,172.984,28.05,89,40,5.14,KI,1712329708
52,mostaganem,35.9311,0.0892,22.37,52,71,4.93,DZ,1712329709
53,udachny,66.4167,112.4,-19.2,93,100,8.81,RU,1712329709
54,ribeira grande,38.5167,-28.7,15.43,72,40,12.86,PT,1712329709
55,enewetak,11.3474,162.3373,27.02,70,65,8.48,MH,1712329709
56,hasaki,35.7333,140.8333,10.22,67,100,5.76,JP,1712329709
57,mujiayingzi,42.1167,118.7833,8.81,24,0,2.97,CN,1712329522
58,teknaf,20.8624,92.3058,26.51,88,0,2.39,BD,1712329709
59,grand falls-windsor,48.9332,-55.6649,1.39,83,100,3.58,CA,1712329511
60,kodiak,57.79,-152.4072,1.73,64,20,4.63,US,1712329463
61,verdal,63.7933,11.4817,5.02,57,100,2.63,NO,1712329410
62,northam,51.0333,-4.2167,15.34,80,100,9.44,GB,1712329710
63,riohacha,11.5444,-72.9072,32.18,59,83,4.58,CO,1712329710
64,cockburn town,21.4612,-71.1419,25.73,81,11,2.43,TC,1712329710
65,tweed heads,-28.1817,153.547,22.76,99,58,2.57,AU,1712329710
66,invercargill,-46.4,168.35,9.45,88,84,2.68,NZ,1712329710
67,wailua homesteads,22.0669,-159.378,21.24,85,100,7.72,US,1712329710
68,margaret river,-33.95,115.0667,15.32,74,100,3.44,AU,1712329711
69,north platte,41.1239,-100.7654,9.1,42,0,5.81,US,1712329711
70,port alfred,-33.5906,26.891,17.88,81,100,0.45,ZA,1712329551
71,labrador city,52.9463,-66.9114,0.66,57,75,6.69,CA,1712329592
72,port saint john's,-31.6229,29.5448,19.77,85,100,4.98,ZA,1712329711
73,east london,-33.0153,27.9116,16.52,94,75,6.17,ZA,1712329711
74,vadso,70.0744,29.7487,-3.91,54,0,11.32,NO,1712329711
75,harrison,30.4091,-89.0436,21.14,39,0,2.57,US,1712329711
76,masterton,-40.9597,175.6575,8.94,71,100,0.27,NZ,1712329694
77,vorkuta,67.5,64.0,-18.71,91,100,7.11,RU,1712329612
78,bilibino,68.0546,166.4372,-24.73,98,32,1.83,RU,1712329712
79,colac,-38.3333,143.5833,14.54,92,100,3.34,AU,1712329712
80,robertsport,6.7533,-11.3686,27.91,79,25,5.29,LR,1712329654
81,rabo de peixe,37.8,-25.5833,15.73,67,40,15.95,PT,1712329712
82,whitehorse,60.7161,-135.0538,-2.05,74,100,4.92,CA,1712329690
83,davos,46.8043,9.8372,13.47,85,97,3.08,CH,1712329712
84,georgetown,5.4112,100.3354,30.97,70,20,3.13,MY,1712329594
85,martapura,-3.4167,114.85,25.05,94,40,3.6,ID,1712329712
86,morondava,-20.2833,44.2833,29.01,73,0,4.88,MG,1712329638
87,tabuk,17.4189,121.4443,23.49,71,1,2.46,PH,1712329785
88,san mateo del mar,16.2,-95.0,26.66,64,19,12.23,MX,1712329713
89,vorgashor,67.5833,63.95,-18.92,92,100,7.31,RU,1712329713
90,karratha,-20.7377,116.8463,27.61,52,68,0.97,AU,1712329713
91,najran,17.4924,44.1277,27.36,49,99,3.33,SA,1712329713
92,narvik,68.4384,17.4272,-2.33,58,76,4.71,NO,1712329484
93,kruisfontein,-34.0033,24.7314,17.16,76,100,3.15,ZA,1712329696
94,majene,-3.5403,118.9707,26.42,88,84,2.64,ID,1712329713
95,port mathurin,-19.6833,63.4167,26.88,80,100,8.07,MU,1712329714
96,puerto ayora,-0.7393,-90.3518,27.98,90,96,3.13,EC,1712329714
97,freetown,8.484,-13.2299,27.94,74,72,4.29,SL,1712329714
98,zhaqsy,51.9083,67.3133,1.77,95,60,3.07,KZ,1712329714
99,black river,18.0264,-77.8487,30.02,57,19,2.77,JM,1712329714
100,ushuaia,-54.8,-68.3,13.81,47,0,5.66,AR,1712329682
101,stanley,54.868,-1.6985,14.33,77,20,7.72,GB,1712329678
102,laguna,38.421,-121.4238,6.05,92,75,2.06,US,1712329415
103,tazovsky,67.4667,78.7,-4.85,96,100,9.07,RU,1712329715
104,karibib,-21.9333,15.8333,30.76,32,73,3.09,NA,1712329715
105,ust-nera,64.5667,143.2,-18.81,97,45,1.29,RU,1712329715
106,minden,52.2833,8.9167,17.02,81,100,9.26,DE,1712329715
107,revda,56.801,59.9303,8.2,82,100,2.9,RU,1712329715
108,altamirano,16.8833,-92.15,20.33,61,33,1.81,MX,1712329715
109,geraldton,-28.7667,114.6,18.23,82,40,0.51,AU,1712329715
110,callao,-12.0667,-77.15,24.16,78,20,5.14,PE,1712329704
111,sambava,-14.2667,50.1667,26.77,89,74,6.1,MG,1712329716
112,eyl,7.9803,49.8164,28.15,68,48,7.18,SO,1712329716
113,slave lake,55.2834,-114.769,-0.85,77,100,1.58,CA,1712329623
114,gadzhiyevo,69.2551,33.3362,-5.68,79,13,4.86,RU,1712329716
115,hermanus,-34.4187,19.2345,17.67,61,100,8.78,ZA,1712329716
116,lebanon,36.2081,-86.2911,9.03,74,40,0.89,US,1712329612
117,badger,64.8,-147.5333,0.14,93,100,0.0,US,1712329717
118,taphan hin,16.2209,100.4198,36.1,100,1,2.9,TH,1712329717
119,broken hill,-31.95,141.4333,15.85,79,56,6.99,AU,1712329693
120,aasiaat,68.7098,-52.8699,-7.25,91,66,3.64,GL,1712329717
121,anadyr,64.75,177.4833,-19.72,84,0,5.0,RU,1712329717
122,kingston,17.997,-76.7936,32.87,63,20,2.06,JM,1712329351
123,utrik,11.2278,169.8474,26.94,76,68,9.32,MH,1712329717
124,dudinka,69.4058,86.1778,-14.1,79,100,6.99,RU,1712329718
125,winchester center,41.9001,-73.1348,4.64,75,95,2.24,US,1712329718
126,papatowai,-46.5619,169.4708,10.98,79,96,4.93,NZ,1712329718
127,adalar,40.876,29.0947,20.1,37,40,3.09,TR,1712329718
128,sisimiut,66.9395,-53.6735,-3.89,72,20,2.56,GL,1712329718
129,minas de marcona,-15.2119,-75.1103,20.46,71,69,5.92,PE,1712329718
130,nar'yan-mar,67.6713,53.087,-12.8,95,100,3.21,RU,1712329719
131,san juan de miraflores,-12.1629,-76.9635,23.29,81,92,3.37,PE,1712329719
132,tiksi,71.6872,128.8694,-28.62,100,100,2.32,RU,1712329719
133,khanpur mahar,27.8436,69.4137,31.98,13,100,4.0,PK,1712329719
134,ayorou,14.7308,0.9174,42.37,8,25,1.99,NE,1712329719
135,muncar,-8.4333,114.3333,24.35,95,79,1.72,ID,1712329618
136,papao,-17.75,-149.55,26.82,79,64,5.14,PF,1712329720
137,chonchi,-42.6128,-73.8092,12.84,60,29,0.77,CL,1712329720
138,tolanaro,-25.0319,46.9987,24.14,86,7,4.69,MG,1712329720
139,chazuta,-6.5742,-76.1367,29.47,92,93,0.06,PE,1712329720
140,happy valley-goose bay,53.3168,-60.3315,0.14,73,100,5.06,CA,1712329720
141,sochaczew,52.2294,20.2384,18.85,61,100,4.71,PL,1712329720
142,zeya,53.75,127.2667,2.49,95,100,1.24,RU,1712329721
143,nova vicosa,-17.8919,-39.3719,28.81,62,2,3.54,BR,1712329596
144,carnarvon,-24.8667,113.6333,25.75,62,0,7.13,AU,1712329721
145,yigo village,13.5361,144.8886,25.16,90,100,6.17,GU,1712329721
146,monrovia,6.3005,-10.7969,33.87,71,20,4.82,LR,1712329721
147,buala,-8.145,159.5921,27.55,83,100,2.31,SB,1712329721
148,tura,25.5198,90.2201,26.5,27,0,1.46,IN,1712329721
149,martil,35.6166,-5.2752,18.3,80,75,3.42,MA,1712329721
150,gaspe,48.8334,-64.4819,0.12,86,100,8.23,CA,1712329722
151,abaete,-19.16,-45.4458,29.22,56,1,1.73,BR,1712329663
152,mata-utu,-13.2816,-176.1745,29.41,72,100,7.27,WF,1712329722
153,saipan,15.1355,145.701,26.39,89,75,7.2,MP,1712329722
154,keflavik,64.0049,-22.5624,4.24,70,75,8.23,IS,1712329647
155,atafu village,-8.5421,-172.5159,28.49,72,98,0.38,TK,1712329722
156,soe,-9.8607,124.284,19.52,99,100,1.77,ID,1712329722
157,afua,-0.1567,-50.3867,28.09,87,56,3.47,BR,1712329722
158,west island,-12.1568,96.8225,27.99,74,40,5.14,CC,1712329723
159,carauari,-4.8828,-66.8958,32.84,58,95,0.57,BR,1712329723
160,cidade velha,14.9167,-23.6167,27.58,51,84,3.57,CV,1712329723
161,codrington,-38.2667,141.9667,10.86,92,59,2.83,AU,1712329723
162,rio grande,-32.035,-52.0986,25.06,52,0,3.86,BR,1712329679
163,prince rupert,54.3161,-130.3201,4.83,88,75,3.09,CA,1712329511
164,horbranz,47.55,9.75,23.78,55,20,4.63,AT,1712329723
165,carutapera,-1.195,-46.02,28.02,87,72,3.88,BR,1712329723
166,saint-pierre,-21.3393,55.4781,26.82,78,20,2.06,RE,1712329724
167,floro,61.5996,5.0328,6.04,56,0,6.17,NO,1712329561
168,mili,6.0815,171.735,27.29,82,63,7.64,MH,1712329724
169,camargo,27.6667,-105.1667,17.69,22,73,4.32,MX,1712329724
170,klamath falls,42.2249,-121.7817,-1.08,72,40,3.6,US,1712329724
171,mount isa,-20.7333,139.5,20.87,60,100,4.12,AU,1712329724
172,hailun,47.45,126.9333,10.29,23,99,8.72,CN,1712329725
173,galle,6.0367,80.217,28.25,77,29,1.3,LK,1712329725
174,maragogi,-9.0122,-35.2225,30.25,62,25,4.25,BR,1712329725
175,beelitz,52.2333,12.9667,19.52,63,100,5.11,DE,1712329725
176,la sarre,48.8002,-79.1996,1.56,86,100,6.09,CA,1712329573
177,egilsstadir,65.2653,-14.3948,-2.33,77,100,6.44,IS,1712329725
178,cabo san lucas,22.8909,-109.9124,19.86,80,85,3.13,MX,1712329044
179,den helder,52.9599,4.7593,15.55,84,18,11.32,NL,1712329651
180,vila franca do campo,37.7167,-25.4333,16.23,76,67,11.32,PT,1712329725
181,benguela,-12.5763,13.4055,28.56,70,100,3.24,AO,1712329431
182,bel ombre,-4.6167,55.4167,29.27,70,67,1.09,SC,1712329726
183,punta arenas,-53.15,-70.9167,12.06,62,75,14.4,CL,1712329510
184,morong,14.5115,121.2393,29.52,77,100,2.76,PH,1712329726
185,soio,-6.1349,12.3689,28.77,80,100,3.13,AO,1712329458
186,mahibadhoo,3.7833,72.9667,29.8,71,58,3.69,MV,1712329726
187,new norfolk,-42.7826,147.0587,12.62,98,6,0.72,AU,1712329726
188,kuanda,56.3161,116.0806,-11.1,82,95,3.39,RU,1712329726
189,kitimat,54.0524,-128.6534,-2.79,74,47,1.06,CA,1712329553
190,mandalgovi,45.7625,106.2708,4.96,27,19,2.63,MN,1712329727
191,saldanha,-33.0117,17.9442,24.03,64,6,14.3,ZA,1712329552
192,tamanrasset,22.785,5.5228,30.95,6,0,4.12,DZ,1712329727
193,bodo,67.28,14.405,-0.68,54,0,6.71,NO,1712329473
194,pericos,25.05,-107.7,18.95,37,42,1.44,MX,1712329727
195,broome,42.2506,-75.833,3.12,85,100,3.6,US,1712329727
196,el nido,11.1858,119.3956,27.53,82,19,2.52,PH,1712329727
197,gridley,39.3638,-121.6936,6.23,85,100,2.06,US,1712329715
198,fort st. john,56.2499,-120.8529,-1.9,74,40,1.41,CA,1712329727
199,trongsa,27.5026,90.5072,8.58,94,94,1.28,BT,1712329728
200,el alto,-4.2714,-81.2147,27.81,77,97,0.62,PE,1712329728
201,ilulissat,69.2167,-51.1,-2.99,80,75,1.03,GL,1712329728
202,usogorsk,63.4106,48.6872,-7.41,77,68,1.91,RU,1712329728
203,krasnokamensk,50.0979,118.0369,0.62,71,34,3.07,RU,1712329728
204,kavaratti,10.5669,72.642,28.95,67,55,3.78,IN,1712329728
205,smithers,54.7804,-127.1743,-0.5,75,17,0.62,CA,1712329658
206,qarazhal,48.0078,70.7903,10.88,41,5,2.09,KZ,1712329729
207,lampasas,31.2168,-98.2336,23.38,37,3,7.11,US,1712329552
208,kongwa,-6.2,36.4167,22.41,89,100,2.01,TZ,1712329729
209,phan rang-thap cham,11.5667,108.9833,24.51,82,3,1.07,VN,1712329590
210,breyten,-26.3018,29.987,19.48,61,88,1.09,ZA,1712329729
211,rongelap,11.1635,166.8941,26.94,78,91,9.25,MH,1712329729
212,aitape,-3.1374,142.3475,26.14,90,99,1.85,PG,1712329729
213,tashtyp,52.7939,89.8983,7.56,87,82,1.43,RU,1712329730
214,ridgefield,40.8343,-74.0088,8.32,56,100,7.72,US,1712329730
215,al faw,29.9776,48.4741,32.0,32,0,4.61,IQ,1712329637
216,vilyuchinsk,52.9306,158.4028,-3.75,83,98,4.26,RU,1712329730
217,lebu,-37.6167,-73.65,15.23,73,0,5.74,CL,1712329730
218,albertina,-22.2008,-46.6158,29.81,39,7,1.49,BR,1712329730
219,sandnessjoen,66.0217,12.6316,-0.71,59,75,4.12,NO,1712329730
220,naze,28.3667,129.4833,19.15,90,100,1.61,JP,1712329730
221,tofol,5.3248,163.0078,28.19,76,96,8.2,FM,1712329730
222,road town,18.4167,-64.6167,29.02,74,40,2.57,VG,1712329731
223,taurage,55.2522,22.2897,10.72,79,100,4.83,LT,1712329731
224,khandyga,62.6667,135.6,-8.21,91,100,2.03,RU,1712329731
225,nguigmi,14.2495,13.1092,36.71,10,89,5.07,NE,1712329731
226,yakeshi,49.2833,120.7333,-1.81,96,91,2.9,CN,1712329731
227,jiangyou,31.7667,104.7167,14.82,89,100,1.12,CN,1712329731
228,konibodom,40.2843,70.4426,21.47,22,99,2.39,TJ,1712329731
229,adam,22.3756,57.5233,30.62,9,9,6.19,OM,1712329732
230,ishigaki,24.3448,124.1572,23.52,89,99,6.21,JP,1712329705
231,heroica matamoros,25.8833,-97.5,24.95,65,0,8.75,MX,1712329729
232,natal,-5.795,-35.2094,32.36,66,75,5.14,BR,1712329507
233,north bend,43.4065,-124.2243,4.99,93,100,4.63,US,1712329506
234,nantucket,41.2835,-70.0995,7.86,65,0,10.29,US,1712329704
235,quellon,-43.1167,-73.6167,12.44,77,93,2.5,CL,1712329732
236,ratnagiri,16.9833,73.3,27.46,74,6,5.2,IN,1712329732
237,ban karon,7.8477,98.2985,28.95,79,58,5.7,TH,1712329733
238,nemuro,43.3236,145.575,2.0,89,45,3.69,JP,1712329733
239,kupang,-10.1667,123.5833,28.32,89,73,2.06,ID,1712329733
240,port sudan,19.6175,37.2164,28.01,65,0,4.35,SD,1712329733
241,constantia,44.1833,28.65,18.17,67,72,2.52,RO,1712329733
242,sur,22.5667,59.5289,25.98,59,18,1.12,OM,1712329551
243,nishinoomote,30.7333,131.0,18.62,87,100,8.75,JP,1712329733
244,vernon,50.2581,-119.2691,5.74,72,100,1.54,CA,1712329584
245,abqaiq,25.9371,49.6776,32.55,8,0,4.63,SA,1712329733
246,shalqar,47.8333,59.6,16.14,40,7,3.65,KZ,1712329734
247,pacific grove,36.6177,-121.9166,8.06,82,100,1.54,US,1712329734
248,gualeguay,-33.1416,-59.3097,22.5,57,0,2.95,AR,1712329734
249,xilin hot,43.9667,116.0333,6.86,36,1,6.68,CN,1712329522
250,gisborne,-38.6533,178.0042,14.01,78,90,3.96,NZ,1712329654
251,saint-philippe,-21.3585,55.7679,26.77,86,53,1.66,RE,1712329734
252,luderitz,-26.6481,15.1594,22.14,55,56,11.86,NA,1712329695
253,cadale,2.7603,46.3222,29.68,72,96,5.47,SO,1712329734
254,den burg,53.0542,4.7972,15.54,84,18,11.32,NL,1712329735
255,susuman,62.7833,148.1667,-24.45,100,54,0.45,RU,1712329735
256,terebovlya,49.3019,25.71,15.13,59,79,4.95,UA,1712329735
257,marovoay,-16.1,46.6333,30.06,59,4,1.5,MG,1712329735
258,guerrero negro,27.9769,-114.0611,15.79,61,100,7.11,MX,1712329703
259,santiago de cao,-7.9589,-79.2392,22.07,83,95,4.63,PE,1712329576
260,coahuayana de hidalgo,18.7,-103.6583,26.48,32,12,0.54,MX,1712329735
261,chipata,-13.6333,32.65,23.29,86,96,1.49,ZM,1712329555
262,fisterra,42.9049,-9.2629,23.19,59,100,16.73,ES,1712329735
263,adigrat,14.277,39.462,18.98,62,97,3.02,ET,1712329736
264,flin flon,54.7682,-101.865,2.91,52,75,2.57,CA,1712329452
265,midelt,32.6852,-4.7451,25.13,12,8,3.34,MA,1712329736
266,opuwo,-18.0607,13.84,29.16,44,90,4.29,NA,1712329736
267,woolgoolga,-30.1106,153.2007,20.58,93,71,3.22,AU,1712329736
268,eraan,9.0629,117.7016,26.1,82,4,2.44,PH,1712329736
269,kapuskasing,49.4169,-82.4331,1.05,64,20,5.66,CA,1712329502
270,aswan,24.0934,32.907,35.88,10,0,6.77,EG,1712329645
271,mocimboa,-11.3167,40.35,27.03,89,81,2.87,MZ,1712329736
272,holualoa,19.6228,-155.9522,19.91,95,75,4.12,US,1712329737
273,ola,59.5833,151.2833,-9.37,91,77,2.77,RU,1712329737
274,santa ana,33.7456,-117.8678,9.5,89,75,3.6,US,1712329661
275,isafjordur,66.0755,-23.124,0.02,59,75,7.72,IS,1712329737
276,nizhneangarsk,55.7833,109.55,-10.0,84,82,2.24,RU,1712329734
277,santa rosa misiones,-26.8667,-56.85,28.37,66,94,1.25,PY,1712329737
278,hotan,37.0997,79.9269,16.22,16,73,3.84,CN,1712329737
279,isangel,-19.55,169.2667,25.37,82,74,6.67,VU,1712329668
280,polyarnyy,69.1989,33.4478,-5.38,78,13,4.82,RU,1712329737
281,mirnyy,62.5353,113.9611,-18.76,84,100,5.81,RU,1712329496
282,salgueiro,-8.0742,-39.1192,31.89,47,92,3.23,BR,1712329605
283,plastun,44.7561,136.2939,2.39,56,38,1.94,RU,1712329569
284,kavieng,-2.5744,150.7967,27.94,81,97,2.73,PG,1712329738
285,kappeln,54.6612,9.9313,13.36,90,100,11.76,DE,1712329738
286,san juan,-31.5375,-68.5364,26.29,41,0,2.03,AR,1712329597
287,haiku-pauwela,20.9219,-156.3051,21.69,82,0,7.72,US,1712329738
288,kindu,-2.95,25.95,27.31,73,94,0.95,CD,1712329543
289,katsuren-haebaru,26.3369,127.8719,22.43,93,40,2.06,JP,1712329738
290,hamilton,39.1834,-84.5333,8.13,78,100,4.63,US,1712329553
291,acara,-1.9608,-48.1967,32.04,58,83,2.06,BR,1712329739
292,kalmunai,7.4167,81.8167,28.1,78,99,3.35,LK,1712329603
293,malango,-2.9627,119.9001,20.53,98,99,0.95,ID,1712329739
294,uitenhage,-33.7576,25.3971,18.13,78,100,2.88,ZA,1712329739
295,pavilosta,56.8879,21.1859,5.95,85,98,6.04,LV,1712329739
296,celestun,20.8667,-90.4,25.64,53,26,3.36,MX,1712329739
297,amalapuram,16.5833,82.0167,27.62,76,0,3.14,IN,1712329739
298,san antonio de pale,-1.4014,5.6325,28.22,76,99,2.14,GQ,1712329739
299,nadym,65.5333,72.5167,-5.02,94,100,8.7,RU,1712329739
300,island harbour,50.724,-1.2758,16.2,80,100,4.02,GB,1712329740
301,hurricane,37.1753,-113.2899,9.19,49,70,4.02,US,1712329740
302,siwa oasis,29.2041,25.5195,30.38,15,3,6.0,EG,1712329740
303,antsiranana,-12.2787,49.2917,29.42,70,40,5.14,MG,1712329589
304,alofi,-19.0595,-169.9187,25.94,83,40,4.63,NU,1712329740
305,bathsheba,13.2167,-59.5167,30.34,74,40,9.26,BB,1712329740
306,hithadhoo,-0.6,73.0833,28.6,74,98,1.57,MV,1712329740
307,dryden,49.7833,-92.7503,2.04,67,71,3.33,CA,1712329740
308,kailua-kona,19.6406,-155.9956,21.98,95,75,4.12,US,1712329518
309,sao tome,0.3365,6.7273,27.51,80,100,2.92,ST,1712329741
310,la passe,45.5549,-0.8967,25.13,57,100,3.22,FR,1712329741
311,san patricio,28.017,-97.5169,24.39,52,3,6.0,US,1712329741
312,hirara,24.8,125.2833,22.96,92,81,4.1,JP,1712329741
313,sant lluis,39.8526,4.2594,20.22,52,0,6.17,ES,1712329741
314,shepparton,-36.3833,145.4,15.84,87,100,1.81,AU,1712329741
315,lichuan,30.3,108.85,8.62,96,100,1.4,CN,1712329741
316,pimentel,-6.8367,-79.9342,27.16,61,0,2.06,PE,1712329741
317,arzgir,45.3728,44.2206,16.16,47,100,2.3,RU,1712329742
318,cartagena,10.3997,-75.5144,32.79,62,20,2.06,CO,1712329689
319,navasota,30.388,-96.0877,22.46,55,0,2.73,US,1712329524
320,bissau,11.8636,-15.5977,28.1,65,49,6.61,GW,1712329742
321,biltine,14.5333,20.9167,39.7,7,100,3.72,TD,1712329573
322,saudarkrokur,65.7461,-19.6394,-1.85,57,34,0.89,IS,1712329742
323,fort bragg,35.139,-79.006,13.44,43,0,3.09,US,1712329743
324,itaituba,-4.2761,-55.9836,24.14,99,100,1.32,BR,1712329743
325,sukhodol,53.9006,51.2117,9.06,87,100,2.18,RU,1712329743
326,klyuchi,52.2667,79.1667,12.02,57,97,3.09,RU,1712329743
327,berdigestyakh,62.0989,126.6992,-23.89,100,29,1.24,RU,1712329743
328,erenhot,43.6475,111.9767,8.98,35,1,4.9,CN,1712329522
329,pitimbu,-7.4706,-34.8086,32.33,72,27,5.22,BR,1712329618
330,san rafael,-34.6177,-68.3301,22.73,30,0,2.33,AR,1712329743
331,zahedan,29.4963,60.8629,22.95,16,20,3.09,IR,1712329744
332,melendugno,40.2747,18.3368,21.7,55,83,4.18,IT,1712329744
333,bayji,34.9311,43.487,30.59,15,0,4.12,IQ,1712329744
334,castillos,-34.1667,-53.8333,22.46,44,0,2.63,UY,1712329744
335,barnoldswick,53.9171,-2.1871,15.8,76,29,9.41,GB,1712329744
336,remire-montjoly,4.9167,-52.2667,32.02,66,75,7.2,GF,1712329599
337,acapulco de juarez,16.8634,-99.8901,26.9,61,20,1.54,MX,1712329703
338,lexington,37.9887,-84.4777,6.0,81,100,3.6,US,1712329674
339,st. john's,47.5649,-52.7093,0.93,97,100,5.66,CA,1712329650
340,deniliquin,-35.5333,144.9667,15.53,92,100,4.55,AU,1712329745
341,kapa'a,22.0752,-159.319,21.99,85,100,7.72,US,1712329745
342,boa vista,2.8197,-60.6733,26.99,83,75,5.66,BR,1712329694
343,harper,4.375,-7.7169,29.89,70,44,4.09,LR,1712329745
344,lorengau,-2.0226,147.2712,27.4,81,82,1.71,PG,1712329745
345,princeville,45.7668,-61.2985,3.7,96,100,9.26,CA,1712329745
346,ascencion,31.1,-107.9833,16.71,25,7,5.45,MX,1712329745
347,les sables-d'olonne,46.6667,-1.8333,20.44,78,100,4.6,FR,1712329559
348,beoumi,7.6736,-5.5764,37.46,32,16,2.63,CI,1712329746
349,nova sintra,14.8667,-24.7167,23.75,77,80,7.82,CV,1712329746
350,namibe,-15.1961,12.1522,25.97,63,69,6.21,AO,1712329746
351,posto fiscal rolim de moura,-13.0833,-62.2667,24.67,95,100,0.24,BR,1712329746
352,burang,30.25,81.1667,-6.94,94,78,2.16,CN,1712329746
353,la libertad,-2.2333,-80.9,27.81,74,20,2.06,EC,1712329746
354,yuzhno-kurilsk,44.0306,145.8556,0.76,91,6,2.17,RU,1712329685
355,yeppoon,-23.1333,150.7333,21.88,81,90,6.0,AU,1712329746
356,salinopolis,-0.6136,-47.3561,27.82,86,100,5.87,BR,1712329658
357,balabac,7.9868,117.0645,28.21,75,13,5.17,PH,1712329747
358,cervantes,-39.05,-67.3833,19.88,31,0,0.64,AR,1712329655
359,bacabal,-4.2917,-44.7917,30.4,71,63,2.18,BR,1712329700
360,el calafate,-50.3408,-72.2768,8.16,78,50,2.28,AR,1712329648
361,namdrik,5.5994,168.1028,27.35,82,100,8.25,MH,1712329747
362,crucecita,-28.95,-58.9833,25.93,74,86,4.18,AR,1712329747
363,fale old settlement,-9.3852,-171.2468,28.76,72,93,1.27,TK,1712329747
364,bikin,46.8161,134.26,2.3,63,40,2.81,RU,1712329747
365,dhidhdhoo,6.8833,73.1,29.74,75,100,2.53,MV,1712329747
366,caruthersville,36.1931,-89.6556,11.99,58,0,0.45,US,1712329748
367,as suwayq,23.8494,57.4386,27.18,36,0,0.5,OM,1712329748
368,longquan,24.6719,102.1613,17.37,52,1,2.05,CN,1712329748
369,wotho,10.1657,166.0102,26.99,79,89,8.72,MH,1712329748
370,ushtobe,45.2514,77.9838,14.34,33,34,1.53,KZ,1712329748
371,lazaro cardenas,17.9583,-102.2,25.97,32,0,0.39,MX,1712329464
372,lompoc,34.6391,-120.4579,8.4,85,75,2.24,US,1712329749
373,afaahiti,-17.75,-149.2833,25.93,83,77,5.24,PF,1712329749
374,sao vicente,-23.9631,-46.3919,35.15,69,5,2.68,BR,1712329619
375,kuytun,54.3419,101.5036,0.63,99,100,2.0,RU,1712329749
376,ciudad bolivar,8.1222,-63.5497,34.64,40,79,5.24,VE,1712329533
377,alvaraes,-3.2208,-64.8042,29.93,69,98,1.36,BR,1712329749
378,hami,42.8,93.45,13.87,27,79,3.97,CN,1712329705
379,sychevka,55.8252,34.2736,4.77,53,30,4.07,RU,1712329749
380,mozhaysk,55.5019,36.0272,4.18,52,2,2.66,RU,1712329749
381,shush,32.1942,48.2436,28.1,28,0,1.47,IR,1712329750
382,petropavlovsk-kamchatsky,53.0452,158.6483,-4.57,77,100,3.58,RU,1712329750
383,chegdomyn,51.1167,133.0167,-1.73,81,100,2.16,RU,1712329750
384,palikir - national government center,6.9248,158.1611,27.65,76,100,8.19,FM,1712329750
385,cabinda,-5.55,12.2,30.02,71,74,3.82,AO,1712329469
386,riberalta,-10.9833,-66.1,31.11,74,75,3.09,BO,1712329750
387,tocache,-8.1842,-76.5125,23.63,93,97,0.59,PE,1712329750
388,nema,57.5067,50.5011,-3.34,80,100,4.85,RU,1712329751
389,lichinga,-13.3128,35.2406,20.42,94,94,2.37,MZ,1712329751
390,forbes,-33.3833,148.0167,15.51,97,100,2.25,AU,1712329751
391,porto novo,6.4965,2.6036,32.53,57,83,5.63,BJ,1712329751
392,bac lieu,9.285,105.7244,28.22,74,22,4.62,VN,1712329751
393,padangsidempuan,1.3667,99.2667,23.07,99,100,0.9,ID,1712329751
394,timon,-5.0942,-42.8367,32.2,61,95,1.43,BR,1712329751
395,queenstown,-31.8976,26.8753,14.56,74,93,4.87,ZA,1712329751
396,nelson bay,-32.7167,152.15,21.17,97,100,15.2,AU,1712329751
397,tuszyn,51.6095,19.5301,17.2,53,20,5.66,PL,1712329752
398,quesnel,52.9999,-122.5029,-0.48,65,7,2.03,CA,1712329752
399,sinaloa de leyva,25.8333,-108.2333,20.9,34,78,2.75,MX,1712329752
400,salalah,17.0151,54.0924,27.36,66,13,2.52,OM,1712329752
401,yarmouth,41.7057,-70.2286,8.39,68,40,7.72,US,1712329752
402,kudahuvadhoo,2.6708,72.8944,29.3,74,100,3.75,MV,1712329752
403,mount gambier,-37.8333,140.7667,11.31,93,43,2.36,AU,1712329752
404,al minya,28.1099,30.7503,31.24,12,0,7.53,EG,1712329752
405,tongliao,43.6125,122.2653,10.5,23,0,6.6,CN,1712329752
406,alesund,62.4723,6.1549,6.51,65,20,4.12,NO,1712329506
407,kanbe,16.7053,96.0017,30.03,56,0,4.72,MM,1712329753
408,centar zupa,41.4681,20.5589,18.85,43,39,2.74,MK,1712329753
409,bakanas,44.8081,76.2772,18.07,27,100,2.78,KZ,1712329753
410,mil'kovo,55.6078,37.7956,4.27,45,8,3.18,RU,1712329753
411,la ferte-mace,48.59,-0.358,13.79,87,99,7.04,FR,1712329518
412,namsos,64.4662,11.4957,1.95,60,40,5.14,NO,1712329753
413,newman,37.3138,-121.0208,6.13,92,84,1.34,US,1712329754
414,jieshi,22.8134,115.8257,21.92,85,100,8.52,CN,1712329754
415,puerto deseado,-47.7503,-65.8938,15.32,42,44,6.06,AR,1712329754
416,kenai,60.5544,-151.2583,-2.95,98,20,0.0,US,1712329754
417,ciudad lazaro cardenas,17.9583,-102.2,25.97,32,0,0.39,MX,1712329464
418,touros,-5.1989,-35.4608,29.76,69,100,3.39,BR,1712329652
419,rezina,47.7492,28.9622,13.4,70,100,7.9,MD,1712329754
420,caleta de carquin,-11.0925,-77.6267,23.96,79,72,4.76,PE,1712329755
421,shwebo,22.5667,95.7,35.46,21,92,1.99,MM,1712329755
422,praia da vitoria,38.7333,-27.0667,14.31,84,47,14.88,PT,1712329737
423,ta`u,-14.2336,-169.5144,28.54,78,100,4.83,AS,1712329755
424,miandrivazo,-19.5167,45.4667,31.04,54,15,2.41,MG,1712329755
425,nikolayevsk-on-amure,53.1406,140.73,-4.88,91,10,1.34,RU,1712329755
426,nouadhibou,20.931,-17.0347,20.99,73,75,8.75,MR,1712329755
427,kill devil hills,36.0307,-75.676,13.0,59,0,3.6,US,1712329549
428,echuca,-36.1333,144.75,16.09,88,100,4.59,AU,1712329755
429,nagato,34.3833,131.2,11.16,78,21,2.24,JP,1712329756
430,shakawe,-18.3667,21.85,24.19,68,100,0.91,BW,1712329756
431,lacombe,52.4668,-113.7353,-1.48,95,100,3.59,CA,1712329756
432,storvreta,59.9667,17.7,1.03,100,100,2.06,SE,1712329756
433,kievka,50.2619,71.5514,9.68,46,0,1.98,KZ,1712329756
434,merrill,45.1805,-89.6835,4.87,63,100,3.09,US,1712329659
435,aripuana,-9.1667,-60.6333,29.2,68,100,0.97,BR,1712329519
436,murudeshwara,14.0943,74.4845,27.27,74,0,1.33,IN,1712329757
437,crane,31.3974,-102.3501,19.83,24,77,10.76,US,1712329579
438,zhanjiang,21.2815,110.3427,24.38,87,0,7.4,CN,1712329757
439,leava,-14.3,-178.1667,28.28,77,100,5.95,WF,1712329757
440,tamandare,-8.7597,-35.1047,30.58,61,32,4.14,BR,1712329757
441,san pedro,14.35,121.0167,29.08,76,100,2.68,PH,1712329757
442,taroa,8.7058,171.2275,27.45,77,83,9.18,MH,1712329757
443,jianshui,23.6363,102.8264,22.64,36,0,2.55,CN,1712329758
444,metro,-5.1131,105.3067,25.27,92,100,3.09,ID,1712329741
445,trondheim,63.4305,10.3951,5.03,61,98,0.89,NO,1712329758
446,kralendijk,12.15,-68.2667,30.99,66,75,9.77,BQ,1712329758
447,boonville,38.9736,-92.7432,10.35,66,0,1.54,US,1712329758
448,metropolis,37.1512,-88.732,11.19,62,75,3.6,US,1712329580
449,irmo,34.086,-81.1832,14.21,49,20,1.54,US,1712329717
450,wenchang,30.904,118.4887,13.19,68,100,3.52,CN,1712329758
451,san luis de la loma,17.2706,-100.8939,27.49,46,2,1.08,MX,1712329759
452,okhotsk,59.3833,143.3,-9.3,96,61,1.58,RU,1712329475
453,xunchang,28.4543,104.715,16.52,89,100,1.58,CN,1712329759
454,dubbo,-32.25,148.6167,15.07,100,100,3.09,AU,1712329021
455,leer,53.2316,7.461,16.08,80,68,1.79,DE,1712329691
456,al kharijah,25.4514,30.5464,34.27,11,0,7.33,EG,1712329759
457,shawnee,39.05,-95.7669,13.64,48,0,2.57,US,1712329623
458,arno,60.1167,18.6333,0.44,92,100,2.88,SE,1712329759
459,priob'ye,62.5206,65.5964,-3.32,78,100,8.47,RU,1712329760
460,ovruch,51.3246,28.8035,9.27,91,100,2.99,UA,1712329760
461,lanskroun,49.9122,16.6119,18.97,61,98,3.23,CZ,1712329760
462,yeniseysk,58.4497,92.1703,0.53,99,100,1.79,RU,1712329760
463,mugia,43.1041,-9.2179,23.28,54,94,15.58,ES,1712329760
464,uray,60.1247,64.7758,6.04,92,100,5.81,RU,1712329760
465,ugoofaaru,5.6667,73.0,29.66,73,100,2.75,MV,1712329760
466,fortuna,40.5982,-124.1573,4.51,90,0,0.0,US,1712329591
467,rio preto da eva,-2.6994,-59.6997,26.14,95,98,0.96,BR,1712329519
468,redkino,56.6475,36.2967,3.95,46,6,2.6,RU,1712329572
469,uturoa,-16.7333,-151.4333,28.63,78,60,4.38,PF,1712329761
470,songea,-10.6833,35.65,21.55,92,100,2.14,TZ,1712329761
471,ivanivka,46.7208,34.553,14.26,40,50,4.11,UA,1712329761
472,hadibu,12.65,54.0333,27.53,68,13,2.97,YE,1712329761
473,camiri,-20.05,-63.5167,24.88,78,100,0.0,BO,1712329761
474,beaufort,5.3473,115.7455,25.04,93,85,0.9,MY,1712329522
475,moussoro,13.6408,16.4901,41.26,5,51,2.18,TD,1712329762
476,walvis bay,-22.9575,14.5053,24.53,53,0,6.17,NA,1712329528
477,mejit,10.2753,170.8646,26.84,76,99,9.36,MH,1712329762
478,sylacauga,33.1732,-86.2516,14.94,50,100,0.0,US,1712329747
479,puerto ayacucho,5.6639,-67.6236,32.52,56,58,2.4,VE,1712329536
480,weno,7.4515,151.8468,27.97,89,100,3.09,FM,1712329762
481,superior,46.7208,-92.1041,6.64,59,0,5.14,US,1712329762
482,manzini,-26.25,31.5,21.71,89,99,2.52,SZ,1712329763
483,moose jaw,50.4001,-105.5344,3.15,56,75,8.75,CA,1712329539
484,semey,50.4111,80.2275,10.96,63,49,3.33,KZ,1712329763
485,plainview,40.7765,-73.4673,8.71,58,75,7.72,US,1712329477
486,presque isle,46.6811,-68.0159,3.24,79,100,9.77,US,1712329689
487,mikuni,36.2171,136.1519,8.81,75,49,0.5,JP,1712329624
488,pontian kechil,1.4866,103.3896,26.33,83,80,2.91,MY,1712329763
489,portland,45.5234,-122.6762,5.45,91,88,3.13,US,1712329786
490,copala,16.65,-98.9833,27.23,51,1,0.59,MX,1712329764
491,christchurch,-43.5333,172.6333,11.06,84,100,1.54,NZ,1712329549
492,onega,63.9061,38.1404,-5.26,77,2,0.59,RU,1712329489
493,scottburgh,-30.2867,30.7532,22.61,76,11,11.06,ZA,1712329552
494,mosjoen,65.836,13.1908,-0.71,59,75,4.12,NO,1712329755
495,zag,46.9441,99.165,1.39,61,57,2.86,MN,1712329764
496,oranjemund,-28.55,16.4333,16.83,75,4,8.23,NA,1712329764
497,madang,-5.2246,145.7966,25.19,93,100,1.73,PG,1712329727
498,lata,40.1629,-8.3327,26.07,30,100,7.24,PT,1712329764
499,yuyao,30.05,121.1494,11.22,82,100,1.55,CN,1712329765
500,santa cruz,-17.8,-63.1667,31.7,62,75,1.03,BO,1712329703
501,coquimbo,-29.9533,-71.3436,14.85,100,100,1.54,CL,1712329560
502,ishikawa,26.4233,127.8214,22.41,93,40,2.06,JP,1712329765
503,siguiri,11.6667,-9.5,42.68,16,17,1.64,GN,1712329485
504,pionerskiy,54.9508,20.2275,13.91,88,100,3.9,RU,1712329765
505,nuuk,64.1835,-51.7216,-0.66,59,20,6.17,GL,1712329765
506,bamboo flat,11.7,92.7167,28.05,83,40,1.03,IN,1712329766
507,kegeyli shahar,42.7767,59.6078,15.05,60,92,4.23,UZ,1712329766
508,brooks,50.5834,-111.8851,-0.01,98,100,3.09,CA,1712329530
509,beau vallon,-20.4189,57.6953,27.34,87,7,3.21,MU,1712329766
510,pankrushikha,53.8319,80.3406,9.67,76,67,0.61,RU,1712329766
511,bundaberg,-24.85,152.35,21.23,99,93,0.45,AU,1712329766
512,lycksele,64.5954,18.6735,-4.07,68,75,4.63,SE,1712329552
513,starotitarovskaya,45.2136,37.1439,14.26,56,45,4.14,RU,1712329766
514,mount pearl,47.5166,-52.7813,0.47,97,100,5.66,CA,1712329706
515,conceicao da barra,-18.5933,-39.7322,30.0,54,77,2.88,BR,1712329767
516,kyaikkami,16.08,97.5675,28.73,76,93,5.96,MM,1712329767
517,merizo village,13.2658,144.6691,25.85,93,99,8.24,GU,1712329767
518,kerikeri,-35.2268,173.9474,15.79,68,80,2.09,NZ,1712329767
519,kuala tungkal,-0.8167,103.4667,26.7,87,86,0.75,ID,1712329767
520,mittweida,50.9833,12.9833,20.24,62,98,1.34,DE,1712329767
521,urucara,-2.5364,-57.76,27.61,83,92,0.63,BR,1712329767
522,kangding,30.0513,101.9603,8.06,99,100,2.15,CN,1712329767
523,valparaiso,-33.0393,-71.6273,22.3,56,0,4.63,CL,1712329484
524,mumbwa,-14.9783,27.0619,28.46,41,100,2.7,ZM,1712329768
525,houlton,46.1262,-67.8403,3.12,84,100,8.23,US,1712329768
526,jwaneng,-24.6004,24.7303,26.25,44,98,3.32,BW,1712329768
527,murud,18.3258,72.965,28.18,50,30,4.15,IN,1712329768
528,kalianget,-7.05,113.9333,27.6,80,100,2.08,ID,1712329768
529,wewak,-3.5534,143.6268,26.58,87,97,2.6,PG,1712329768
530,kaspiysk,42.8816,47.6392,16.12,51,92,3.0,RU,1712329716
531,sinabang,2.4803,96.3801,27.25,86,48,1.94,ID,1712329525
532,west park,25.9845,-80.1989,23.9,56,0,6.17,US,1712329769
533,hollins,37.3413,-79.9431,9.49,57,20,8.75,US,1712329769
534,bonito,-21.1211,-56.4819,36.2,36,83,1.92,BR,1712329769
535,camana,-16.6228,-72.7111,22.52,86,100,3.15,PE,1712329571
